time,phaseBit,mass-dynamics,E1FiringBit,E2FiringBit,E3FiringBit,E4FiringBit,CengFirBit - NA,Engine1-Thrust,Engine2-Thrust,Engine3-Thrust,Engine4-Thrust,CentalEngine-Thrust - NA,EngTorque-Yaw,EngTorque-Roll,EngTorque-Pitch,Dynamics-MCMFPA-rVector-x,Dynamics-MCMFPA-rVector-y,Dynamics-MCMFPA-rVector-z,Dynamics-MCMFPA-vVector-vx,Dynamics-MCMFPA-vVector-vy,Dynamics-MCMFPA-vVector-vz,qbody-1,qbody-2,qbody-3,qbody-4,wbody-1,wbody-2,wbody-3,Dynamics-latitude-ME,Dynamics-longitude-ME,Dynamics-height-ME,LanderPositionENU-East,LanderPositionENU-North,LanderPositionENU-Up(Not same as height),LanderVelocityENU-East,LanderVelocityENU-North,LanderVelocityENU-Up,-1,-1,-1,LanderHeightFromSurface (With DEM),LanderYawWRTVertical,LanderRollWRTVertical,LanderPitchWRTVertical,R1-AvgThrust,R2-AvgThrust,R3-AvgThrust,R4-AvgThrust,R5-AvgThrust,R6-AvgThrust,R7-AvgThrust,R8-AvgThrust,TotalRCSAvgThrust,NetThrustFromEngineAndRCS,DynamicsHeight(Height from mean moon surface),Dynamics-J2000-rVector-x,Dynamics-J2000-rVector-y,Dynamics-J2000-rVector-z,Dynamics-J2000-vVector-vx,Dynamics-J2000-vVector-vy,Dynamics-J2000-vVector-vz,VerticalVelocity(velocity along radial mcmf vector),arc range,"HorizontalVelocity (Net horizontal velocity, norm taken so always positive)",lNav-Dynamics-r-NUE(1),lNav-Dynamics-r-NUE(2),lNav-Dynamics-r-NUE(3),lNav-Dynamics-v-NUE(1),lNav-Dynamics-v-NUE(2),lNav-Dynamics-v-NUE(3),lNav-Qlocaldyn-1,lNav-Qlocaldyn-2,lNav-Qlocaldyn-3,lNav-Qlocaldyn-4,Usable Oxidizer Left,Usable Fuel Left,Oxidizer Consumed,Fuel Consumed,ThrusterConsumedMass (Outdated),ALSPath,local surface slope,curvilinear cross (Z) landing site distance,curvilinear along (X) landing site distance,"Net horizontal distance from landing site norm(X,Z)",ThrusterConsumedMass ,TotalAccInIIU-x,TotalAccInIIU-y,TotalAccInIIU-z,CdA-Ox-1,CdA-Ox-2,CdA-Ox-3,CdA-Ox-4,CdA-Fu-1,CdA-Fu-2,CdA-Fu-3,time
0.04,11,1728.814941,0,0,0,0,0,0,0,0,0,0,0,0,0,1.13E+06,715858,-1.16E+06,-933.587,-596.971,-1272.24,0.37676746,-0.6003319,-0.38972479,0.58801574,0,0,-5.55E-06,-40.9679985,32.42058182,30940.8,0,0,0,-3.40013,-1687.17,-2.59459,0,0,0,30940.875,88.55732928,84.5365448,108.8883632,0,0,0,0,0,0,0,0,0,0,30940.8,0,0,0,0,0,0,0,860616.106,0,0,0,0,0,0,0,0,0,0,0,0,0,0,0,0,0,0,0,0,0,0,0,0,0,569,543,552,565,480,470,477,10397.09292
0.048,11,1728.814941,0,0,0,0,0,0,0,0,0,0,0,0,0,1.13E+06,715853,-1.16E+06,-933.595,-596.976,-1272.23,0.37676746,-0.6003319,-0.38972479,0.58801574,0,0,-5.55E-06,-40.96843719,32.420578,30940.8,0,0,0,-3.4001,-1687.17,-2.59426,0,0,0,30940.77148,88.55733155,84.5369873,108.8887999,0,0,0,0,0,0,0,0,0,0,30940.8,0,0,0,0,0,0,0,860602.8448,0,0,0,0,0,0,0,0,0,0,0,0,0,0,0,0,0,0,0,0,0,0,0,0,0,569,543,552,565,480,470,477,10396.86704
0.056,11,1728.814941,0,0,0,0,0,0,0,0,0,0,0,0,0,1.13E+06,715848,-1.16E+06,-933.603,-596.981,-1272.22,0.37676746,-0.6003319,-0.38972479,0.58801574,0,0,-5.58E-06,-40.96887589,32.420578,30940.7,0,0,0,-3.40008,-1687.17,-2.59393,0,0,0,30940.75195,88.55733382,84.53742218,108.8892367,0,0,0,0,0,0,0,0,0,0,30940.7,0,0,0,0,0,0,0,860589.5841,0,0,0,0,0,0,0,0,0,0,0,0,0,0,0,0,0,0,0,0,0,0,0,0,0,569,543,552,565,480,470,477,10396.64019
0.064,11,1728.814941,0,0,0,0,0,0,0,0,0,0,0,0,0,1.13E+06,715843,-1.16E+06,-933.611,-596.986,-1272.21,0.37676746,-0.6003319,-0.38972479,0.58801574,0,0,-5.55E-06,-40.96931076,32.420578,30940.7,0,0,0,-3.40006,-1687.17,-2.5936,0,0,0,30940.73047,88.55733621,84.53785706,108.8896734,0,0,0,0,0,0,0,0,0,0,30940.7,0,0,0,0,0,0,0,860576.3231,0,0,0,0,0,0,0,0,0,0,0,0,0,0,0,0,0,0,0,0,0,0,0,0,0,569,543,552,565,480,470,477,10396.41482
0.072,11,1728.814941,0,0,0,0,0,0,0,0,0,0,0,0,0,1.13E+06,715839,-1.16E+06,-933.619,-596.991,-1272.2,0.37676746,-0.6003319,-0.38972479,0.58801574,0,0,-5.55E-06,-40.96974945,32.420578,30940.7,0,0,0,-3.40003,-1687.17,-2.59327,0,0,0,30940.70898,88.55733845,84.53829956,108.8901089,0,0,0,0,0,0,0,0,0,0,30940.7,0,0,0,0,0,0,0,860563.0616,0,0,0,0,0,0,0,0,0,0,0,0,0,0,0,0,0,0,0,0,0,0,0,0,0,569,543,552,565,480,470,477,10396.17979
0.08,11,1728.814941,0,0,0,0,0,0,0,0,0,0,0,0,0,1.13E+06,715834,-1.16E+06,-933.627,-596.996,-1272.2,0.37676746,-0.6003319,-0.38972479,0.58801574,0,0,-5.55E-06,-40.97018814,32.42057419,30940.7,0,0,0,-3.40001,-1687.17,-2.59293,0,0,0,30940.68945,88.55734075,84.53873444,108.890547,0,0,0,0,0,0,0,0,0,0,30940.7,0,0,0,0,0,0,0,860549.8008,0,0,0,0,0,0,0,0,0,0,0,0,0,0,0,0,0,0,0,0,0,0,0,0,0,569,543,552,565,480,470,477,10395.9545
0.088,11,1728.814941,0,0,0,0,0,0,0,0,0,0,0,0,0,1.13E+06,715829,-1.16E+06,-933.635,-597.001,-1272.19,0.37676746,-0.6003319,-0.38972479,0.58801574,0,0,-5.58E-06,-40.97062302,32.42057419,30940.6,0,0,0,-3.39999,-1687.17,-2.5926,0,0,0,30940.66797,88.55734289,84.53916931,108.8909837,0,0,0,0,0,0,0,0,0,0,30940.6,0,0,0,0,0,0,0,860536.5393,0,0,0,0,0,0,0,0,0,0,0,0,0,0,0,0,0,0,0,0,0,0,0,0,0,569,543,552,565,480,470,477,10395.72763
0.096,11,1728.814941,0,0,0,0,0,0,0,0,0,0,0,0,0,1.13E+06,715824,-1.16E+06,-933.643,-597.006,-1272.18,0.37676746,-0.6003319,-0.38972479,0.58801574,0,0,-5.55E-06,-40.97106171,32.42057419,30940.6,0,0,0,-3.39997,-1687.17,-2.59227,0,0,0,30940.64844,88.55734529,84.53961182,108.8914205,0,0,0,0,0,0,0,0,0,0,30940.6,0,0,0,0,0,0,0,860523.278,0,0,0,0,0,0,0,0,0,0,0,0,0,0,0,0,0,0,0,0,0,0,0,0,0,569,543,552,565,480,470,477,10395.50226
0.104,11,1728.814941,0,0,0,0,0,0,0,0,0,0,0,0,0,1.13E+06,715819,-1.16E+06,-933.651,-597.011,-1272.17,0.37676746,-0.6003319,-0.38972479,0.58801574,0,0,-5.55E-06,-40.9715004,32.42057037,30940.6,0,0,0,-3.39994,-1687.17,-2.59194,0,0,0,30940.62695,88.55734745,84.54004669,108.8918591,0,0,0,0,0,0,0,0,0,0,30940.6,0,0,0,0,0,0,0,860510.0165,0,0,0,0,0,0,0,0,0,0,0,0,0,0,0,0,0,0,0,0,0,0,0,0,0,569,543,552,565,480,470,477,10395.27688
0.112,11,1728.814941,0,0,0,0,0,0,0,0,0,0,0,0,0,1.13E+06,715815,-1.16E+06,-933.659,-597.016,-1272.16,0.37676746,-0.6003319,-0.38972479,0.58801574,0,0,-5.55E-06,-40.97193527,32.42057037,30940.6,0,0,0,-3.39992,-1687.17,-2.59161,0,0,0,30940.60547,88.55734986,84.54048157,108.8922978,0,0,0,0,0,0,0,0,0,0,30940.6,0,0,0,0,0,0,0,860496.7557,0,0,0,0,0,0,0,0,0,0,0,0,0,0,0,0,0,0,0,0,0,0,0,0,0,569,543,552,565,480,470,477,10395.04186
0.12,11,1728.814941,0,0,0,0,0,0,0,0,0,0,0,0,0,1.13E+06,715810,-1.16E+06,-933.667,-597.021,-1272.15,0.37676746,-0.6003319,-0.38972479,0.58801574,0,0,-5.55E-06,-40.97237396,32.42057037,30940.6,0,0,0,-3.3999,-1687.17,-2.59128,0,0,0,30940.58594,88.55735213,84.54092407,108.8927346,0,0,0,0,0,0,0,0,0,0,30940.6,0,0,0,0,0,0,0,860483.4949,0,0,0,0,0,0,0,0,0,0,0,0,0,0,0,0,0,0,0,0,0,0,0,0,0,569,543,552,565,480,470,477,10394.81651
0.128,11,1728.814941,0,0,0,0,0,0,0,0,0,0,0,0,0,1.13E+06,715805,-1.16E+06,-933.675,-597.026,-1272.15,0.37676746,-0.6003319,-0.38972479,0.58801574,0,0,-5.58E-06,-40.97280884,32.42056656,30940.5,0,0,0,-3.39987,-1687.17,-2.59094,0,0,0,30940.56445,88.5573543,84.54135895,108.8931727,0,0,0,0,0,0,0,0,0,0,30940.5,0,0,0,0,0,0,0,860470.2325,0,0,0,0,0,0,0,0,0,0,0,0,0,0,0,0,0,0,0,0,0,0,0,0,0,569,543,552,565,480,470,477,10394.58968
0.136,11,1728.814941,0,0,0,0,0,0,0,0,0,0,0,0,0,1.13E+06,715800,-1.16E+06,-933.683,-597.031,-1272.14,0.37676746,-0.6003319,-0.38972479,0.58801574,0,0,-5.55E-06,-40.97324753,32.42056656,30940.5,0,0,0,-3.39985,-1687.17,-2.59061,0,0,0,30940.54297,88.5573567,84.54179382,108.8936094,0,0,0,0,0,0,0,0,0,0,30940.5,0,0,0,0,0,0,0,860456.9718,0,0,0,0,0,0,0,0,0,0,0,0,0,0,0,0,0,0,0,0,0,0,0,0,0,569,543,552,565,480,470,477,10394.36432
0.144,11,1728.814941,0,0,0,0,0,0,0,0,0,0,0,0,0,1.13E+06,715796,-1.16E+06,-933.691,-597.036,-1272.13,0.37676746,-0.6003319,-0.38972479,0.58801574,0,0,-5.55E-06,-40.97368622,32.42056656,30940.5,0,0,0,-3.39983,-1687.17,-2.59028,0,0,0,30940.52344,88.55735884,84.54223633,108.8940462,0,0,0,0,0,0,0,0,0,0,30940.5,0,0,0,0,0,0,0,860443.7105,0,0,0,0,0,0,0,0,0,0,0,0,0,0,0,0,0,0,0,0,0,0,0,0,0,569,543,552,565,480,470,477,10394.1293
0.152,11,1728.814941,0,0,0,0,0,0,0,0,0,0,0,0,0,1.13E+06,715791,-1.16E+06,-933.7,-597.041,-1272.12,0.37676746,-0.6003319,-0.38972479,0.58801574,0,0,-5.55E-06,-40.97412109,32.42056274,30940.5,0,0,0,-3.39981,-1687.17,-2.58995,0,0,0,30940.50195,88.55736124,84.5426712,108.8944829,0,0,0,0,0,0,0,0,0,0,30940.5,0,0,0,0,0,0,0,860430.4497,0,0,0,0,0,0,0,0,0,0,0,0,0,0,0,0,0,0,0,0,0,0,0,0,0,569,543,552,565,480,470,477,10393.90394
0.16,11,1728.814941,0,0,0,0,0,0,0,0,0,0,0,0,0,1.13E+06,715786,-1.16E+06,-933.708,-597.046,-1272.11,0.37676746,-0.6003319,-0.38972479,0.58801574,0,0,-5.58E-06,-40.97455978,32.42056274,30940.5,0,0,0,-3.39978,-1687.17,-2.58962,0,0,0,30940.48242,88.55736338,84.54310608,108.8949197,0,0,0,0,0,0,0,0,0,0,30940.5,0,0,0,0,0,0,0,860417.188,0,0,0,0,0,0,0,0,0,0,0,0,0,0,0,0,0,0,0,0,0,0,0,0,0,569,543,552,565,480,470,477,10393.67857
0.168,11,1728.814941,0,0,0,0,0,0,0,0,0,0,0,0,0,1.13E+06,715781,-1.16E+06,-933.716,-597.051,-1272.11,0.37676746,-0.6003319,-0.38972479,0.58801574,0,0,-5.55E-06,-40.97499847,32.42056274,30940.4,0,0,0,-3.39976,-1687.17,-2.58929,0,0,0,30940.46094,88.55736578,84.54354095,108.8953564,0,0,0,0,0,0,0,0,0,0,30940.4,0,0,0,0,0,0,0,860403.9272,0,0,0,0,0,0,0,0,0,0,0,0,0,0,0,0,0,0,0,0,0,0,0,0,0,569,543,552,565,480,470,477,10393.45178
0.176,11,1728.814941,0,0,0,0,0,0,0,0,0,0,0,0,0,1.13E+06,715777,-1.16E+06,-933.724,-597.056,-1272.1,0.37676746,-0.6003319,-0.38972479,0.58801574,0,0,-5.55E-06,-40.97543335,32.42056274,30940.4,0,0,0,-3.39974,-1687.17,-2.58895,0,0,0,30940.43945,88.55736784,84.54398346,108.8957964,0,0,0,0,0,0,0,0,0,0,30940.4,0,0,0,0,0,0,0,860390.6656,0,0,0,0,0,0,0,0,0,0,0,0,0,0,0,0,0,0,0,0,0,0,0,0,0,569,543,552,565,480,470,477,10393.21675
0.184,11,1728.814941,0,0,0,0,0,0,0,0,0,0,0,0,0,1.13E+06,715772,-1.16E+06,-933.732,-597.061,-1272.09,0.37676746,-0.6003319,-0.38972479,0.58801574,0,0,-5.55E-06,-40.97587204,32.42055893,30940.4,0,0,0,-3.39971,-1687.17,-2.58862,0,0,0,30940.41992,88.55737024,84.54441833,108.8962332,0,0,0,0,0,0,0,0,0,0,30940.4,0,0,0,0,0,0,0,860377.405,0,0,0,0,0,0,0,0,0,0,0,0,0,0,0,0,0,0,0,0,0,0,0,0,0,569,543,552,565,480,470,477,10392.9914
0.192,11,1728.814941,0,0,0,0,0,0,0,0,0,0,0,0,0,1.13E+06,715767,-1.16E+06,-933.74,-597.066,-1272.08,0.37676746,-0.6003319,-0.38972479,0.58801574,0,0,-5.55E-06,-40.97631073,32.42055893,30940.4,0,0,0,-3.39969,-1687.17,-2.58829,0,0,0,30940.39844,88.55737253,84.54485321,108.8966719,0,0,0,0,0,0,0,0,0,0,30940.4,0,0,0,0,0,0,0,860364.1433,0,0,0,0,0,0,0,0,0,0,0,0,0,0,0,0,0,0,0,0,0,0,0,0,0,569,543,552,565,480,470,477,10392.76601
0.2,11,1728.814941,0,0,0,0,0,0,0,0,0,0,0,0,0,1.13E+06,715762,-1.16E+06,-933.748,-597.072,-1272.07,0.37676746,-0.6003319,-0.38972479,0.58801574,0,0,-5.58E-06,-40.97674561,32.42055893,30940.4,0,0,0,-3.39967,-1687.17,-2.58796,0,0,0,30940.37891,88.5573748,84.54529572,108.8971086,0,0,0,0,0,0,0,0,0,0,30940.4,0,0,0,0,0,0,0,860350.882,0,0,0,0,0,0,0,0,0,0,0,0,0,0,0,0,0,0,0,0,0,0,0,0,0,569,543,552,565,480,470,477,10392.54065
0.208,11,1728.814941,0,0,0,0,0,0,0,0,0,0,0,0,0,1.13E+06,715757,-1.16E+06,-933.756,-597.077,-1272.06,0.37676746,-0.6003319,-0.38972479,0.58801574,0,0,-5.55E-06,-40.9771843,32.42055511,30940.3,0,0,0,-3.39964,-1687.17,-2.58763,0,0,0,30940.35742,88.55737707,84.54573059,108.8975454,0,0,0,0,0,0,0,0,0,0,30940.3,0,0,0,0,0,0,0,860337.6211,0,0,0,0,0,0,0,0,0,0,0,0,0,0,0,0,0,0,0,0,0,0,0,0,0,569,543,552,565,480,470,477,10392.31379
0.216,11,1728.814941,0,0,0,0,0,0,0,0,0,0,0,0,0,1.13E+06,715753,-1.16E+06,-933.764,-597.082,-1272.06,0.37676746,-0.6003319,-0.38972479,0.58801574,0,0,-5.55E-06,-40.97762299,32.42055511,30940.3,0,0,0,-3.39962,-1687.17,-2.5873,0,0,0,30940.33594,88.55737934,84.54616547,108.8979821,0,0,0,0,0,0,0,0,0,0,30940.3,0,0,0,0,0,0,0,860324.3598,0,0,0,0,0,0,0,0,0,0,0,0,0,0,0,0,0,0,0,0,0,0,0,0,0,569,543,552,565,480,470,477,10392.07883
0.224,11,1728.814941,0,0,0,0,0,0,0,0,0,0,0,0,0,1.13E+06,715748,-1.16E+06,-933.772,-597.087,-1272.05,0.37676746,-0.6003319,-0.38972479,0.58801574,0,0,-5.55E-06,-40.97805786,32.42055511,30940.3,0,0,0,-3.3996,-1687.17,-2.58696,0,0,0,30940.31641,88.55738161,84.54660797,108.8984189,0,0,0,0,0,0,0,0,0,0,30940.3,0,0,0,0,0,0,0,860311.0989,0,0,0,0,0,0,0,0,0,0,0,0,0,0,0,0,0,0,0,0,0,0,0,0,0,569,543,552,565,480,470,477,10391.85347
0.232,11,1728.814941,0,0,0,0,0,0,0,0,0,0,0,0,0,1.13E+06,715743,-1.16E+06,-933.78,-597.092,-1272.04,0.37676746,-0.6003319,-0.38972479,0.58801574,0,0,-5.58E-06,-40.97849655,32.4205513,30940.3,0,0,0,-3.39958,-1687.17,-2.58663,0,0,0,30940.29492,88.55738379,84.54704285,108.898857,0,0,0,0,0,0,0,0,0,0,30940.3,0,0,0,0,0,0,0,860297.8379,0,0,0,0,0,0,0,0,0,0,0,0,0,0,0,0,0,0,0,0,0,0,0,0,0,569,543,552,565,480,470,477,10391.6281
0.24,11,1728.814941,0,0,0,0,0,0,0,0,0,0,0,0,0,1.13E+06,715738,-1.16E+06,-933.788,-597.097,-1272.03,0.37676746,-0.6003319,-0.38972479,0.58801574,-2.61E-08,0,-5.55E-06,-40.97893143,32.4205513,30940.3,0,0,0,-3.39955,-1687.17,-2.5863,0,0,0,30940.27539,88.55738606,84.54747772,108.8992937,0,0,0,0,0,0,0,0,0,0,30940.3,0,0,0,0,0,0,0,860284.5761,0,0,0,0,0,0,0,0,0,0,0,0,0,0,0,0,0,0,0,0,0,0,0,0,0,569,543,552,565,480,470,477,10391.40273
0.248,11,1728.814941,0,0,0,0,0,0,0,0,0,0,0,0,0,1.13E+06,715734,-1.16E+06,-933.796,-597.102,-1272.02,0.37676746,-0.6003319,-0.38972479,0.58801574,0,0,-5.55E-06,-40.97937012,32.4205513,30940.2,0,0,0,-3.39953,-1687.17,-2.58597,0,0,0,30940.25391,88.55738845,84.54792023,108.8997305,0,0,0,0,0,0,0,0,0,0,30940.2,0,0,0,0,0,0,0,860271.3152,0,0,0,0,0,0,0,0,0,0,0,0,0,0,0,0,0,0,0,0,0,0,0,0,0,569,543,552,565,480,470,477,10391.16622
0.256,11,1728.814941,0,0,0,0,0,0,0,0,0,0,0,0,0,1.13E+06,715729,-1.16E+06,-933.804,-597.107,-1272.02,0.37676746,-0.6003319,-0.38972479,0.58801574,0,0,-5.55E-06,-40.97980881,32.42054749,30940.2,0,0,0,-3.39951,-1687.17,-2.58564,0,0,0,30940.23242,88.55739062,84.5483551,108.9001692,0,0,0,0,0,0,0,0,0,0,30940.2,0,0,0,0,0,0,0,860258.0542,0,0,0,0,0,0,0,0,0,0,0,0,0,0,0,0,0,0,0,0,0,0,0,0,0,569,543,552,565,480,470,477,10390.94091
0.264,11,1728.814941,0,0,0,0,0,0,0,0,0,0,0,0,0,1.13E+06,715724,-1.16E+06,-933.812,-597.112,-1272.01,0.37676746,-0.6003319,-0.38972479,0.58801574,0,0,-5.58E-06,-40.98024368,32.42054749,30940.2,0,0,0,-3.39948,-1687.17,-2.58531,0,0,0,30940.21289,88.55739301,84.54878998,108.9006059,0,0,0,0,0,0,0,0,0,0,30940.2,0,0,0,0,0,0,0,860244.7928,0,0,0,0,0,0,0,0,0,0,0,0,0,0,0,0,0,0,0,0,0,0,0,0,0,569,543,552,565,480,470,477,10390.71555
0.272,11,1728.814941,0,0,0,0,0,0,0,0,0,0,0,0,0,1.13E+06,715719,-1.16E+06,-933.82,-597.117,-1272,0.37676746,-0.6003319,-0.38972479,0.58801574,0,0,-5.55E-06,-40.98068237,32.42054749,30940.2,0,0,0,-3.39946,-1687.17,-2.58498,0,0,0,30940.19141,88.55739517,84.54923248,108.9010446,0,0,0,0,0,0,0,0,0,0,30940.2,0,0,0,0,0,0,0,860231.5318,0,0,0,0,0,0,0,0,0,0,0,0,0,0,0,0,0,0,0,0,0,0,0,0,0,569,543,552,565,480,470,477,10390.49017
0.28,11,1728.814941,0,0,0,0,0,0,0,0,0,0,0,0,0,1.13E+06,715714,-1.16E+06,-933.828,-597.122,-1271.99,0.37676746,-0.6003319,-0.38972479,0.58801574,0,0,-5.55E-06,-40.98112106,32.42054749,30940.2,0,0,0,-3.39944,-1687.17,-2.58464,0,0,0,30940.17188,88.55739748,84.54966736,108.9014827,0,0,0,0,0,0,0,0,0,0,30940.2,0,0,0,0,0,0,0,860218.2704,0,0,0,0,0,0,0,0,0,0,0,0,0,0,0,0,0,0,0,0,0,0,0,0,0,569,543,552,565,480,470,477,10390.2648
0.288,11,1728.814941,0,0,0,0,0,0,0,0,0,0,0,0,0,1.13E+06,715710,-1.16E+06,-933.836,-597.127,-1271.98,0.37676746,-0.6003319,-0.38972479,0.58801574,0,0,-5.55E-06,-40.98155594,32.42054367,30940.1,0,0,0,-3.39942,-1687.17,-2.58431,0,0,0,30940.15039,88.55739975,84.55010223,108.9019194,0,0,0,0,0,0,0,0,0,0,30940.1,0,0,0,0,0,0,0,860205.0089,0,0,0,0,0,0,0,0,0,0,0,0,0,0,0,0,0,0,0,0,0,0,0,0,0,569,543,552,565,480,470,477,10390.02828
0.296,11,1728.814941,0,0,0,0,0,0,0,0,0,0,0,0,0,1.13E+06,715705,-1.16E+06,-933.844,-597.132,-1271.97,0.37676746,-0.6003319,-0.38972479,0.58801574,0,0,-5.55E-06,-40.98199463,32.42054367,30940.1,0,0,0,-3.39939,-1687.17,-2.58398,0,0,0,30940.12891,88.55740202,84.55054474,108.9023562,0,0,0,0,0,0,0,0,0,0,30940.1,0,0,0,0,0,0,0,860191.748,0,0,0,0,0,0,0,0,0,0,0,0,0,0,0,0,0,0,0,0,0,0,0,0,0,569,543,552,565,480,470,477,10389.80291
0.304,11,1728.814941,0,0,0,0,0,0,0,0,0,0,0,0,0,1.13E+06,715700,-1.16E+06,-933.852,-597.137,-1271.97,0.37676746,-0.6003319,-0.38972479,0.58801574,0,0,-5.58E-06,-40.98243332,32.42054367,30940.1,0,0,0,-3.39937,-1687.17,-2.58365,0,0,0,30940.10938,88.55740442,84.55097961,108.9027929,0,0,0,0,0,0,0,0,0,0,30940.1,0,0,0,0,0,0,0,860178.4865,0,0,0,0,0,0,0,0,0,0,0,0,0,0,0,0,0,0,0,0,0,0,0,0,0,569,543,552,565,480,470,477,10389.57761
0.312,11,1728.814941,0,0,0,0,0,0,0,0,0,0,0,0,0,1.13E+06,715695,-1.16E+06,-933.86,-597.142,-1271.96,0.37676746,-0.6003319,-0.38972479,0.58801574,0,0,-5.55E-06,-40.98286819,32.42053986,30940.1,0,0,0,-3.39935,-1687.17,-2.58332,0,0,0,30940.08789,88.55740666,84.55141449,108.9032284,0,0,0,0,0,0,0,0,0,0,30940.1,0,0,0,0,0,0,0,860165.2258,0,0,0,0,0,0,0,0,0,0,0,0,0,0,0,0,0,0,0,0,0,0,0,0,0,569,543,552,565,480,470,477,10389.35225
0.32,11,1728.814941,0,0,0,0,0,0,0,0,0,0,0,0,0,1.13E+06,715691,-1.16E+06,-933.868,-597.147,-1271.95,0.37676746,-0.6003319,-0.38972479,0.58801574,0,0,-5.55E-06,-40.98330688,32.42053986,30940,0,0,0,-3.39932,-1687.17,-2.58299,0,0,0,30940.06836,88.55740906,84.55185699,108.9036651,0,0,0,0,0,0,0,0,0,0,30940,0,0,0,0,0,0,0,860151.9643,0,0,0,0,0,0,0,0,0,0,0,0,0,0,0,0,0,0,0,0,0,0,0,0,0,569,543,552,565,480,470,477,10389.11574
0.328,11,1728.814941,0,0,0,0,0,0,0,0,0,0,0,0,0,1.13E+06,715686,-1.16E+06,-933.876,-597.152,-1271.94,0.37676746,-0.6003319,-0.38972479,0.58801574,0,0,-5.55E-06,-40.98374557,32.42053986,30940,0,0,0,-3.3993,-1687.17,-2.58265,0,0,0,30940.04688,88.55741122,84.55229187,108.9041038,0,0,0,0,0,0,0,0,0,0,30940,0,0,0,0,0,0,0,860138.7029,0,0,0,0,0,0,0,0,0,0,0,0,0,0,0,0,0,0,0,0,0,0,0,0,0,569,543,552,565,480,470,477,10388.89036
0.336,11,1728.814941,0,0,0,0,0,0,0,0,0,0,0,0,0,1.13E+06,715681,-1.16E+06,-933.884,-597.157,-1271.93,0.37676746,-0.6003319,-0.38972479,0.58801574,0,0,-5.58E-06,-40.98418045,32.42053604,30940,0,0,0,-3.39928,-1687.17,-2.58232,0,0,0,30940.02734,88.55741352,84.55272675,108.9045419,0,0,0,0,0,0,0,0,0,0,30940,0,0,0,0,0,0,0,860125.4418,0,0,0,0,0,0,0,0,0,0,0,0,0,0,0,0,0,0,0,0,0,0,0,0,0,569,543,552,565,480,470,477,10388.66499
0.344,11,1728.814941,0,0,0,0,0,0,0,0,0,0,0,0,0,1.13E+06,715676,-1.16E+06,-933.892,-597.162,-1271.92,0.37676746,-0.6003319,-0.38972479,0.58801574,0,0,-5.55E-06,-40.98461914,32.42053604,30940,0,0,0,-3.39926,-1687.17,-2.58199,0,0,0,30940.00586,88.55741567,84.55316925,108.9049786,0,0,0,0,0,0,0,0,0,0,30940,0,0,0,0,0,0,0,860112.1803,0,0,0,0,0,0,0,0,0,0,0,0,0,0,0,0,0,0,0,0,0,0,0,0,0,569,543,552,565,480,470,477,10388.43961
0.352,11,1728.814941,0,0,0,0,0,0,0,0,0,0,0,0,0,1.13E+06,715671,-1.16E+06,-933.9,-597.167,-1271.92,0.37676746,-0.6003319,-0.38972479,0.58801574,0,0,-5.55E-06,-40.98505402,32.42053604,30940,0,0,0,-3.39923,-1687.17,-2.58166,0,0,0,30939.98438,88.55741808,84.55360413,108.9054173,0,0,0,0,0,0,0,0,0,0,30940,0,0,0,0,0,0,0,860098.9196,0,0,0,0,0,0,0,0,0,0,0,0,0,0,0,0,0,0,0,0,0,0,0,0,0,569,543,552,565,480,470,477,10388.21432
0.36,11,1728.814941,0,0,0,0,0,0,0,0,0,0,0,0,0,1.13E+06,715667,-1.16E+06,-933.908,-597.172,-1271.91,0.37676746,-0.6003319,-0.38972479,0.58801574,0,0,-5.55E-06,-40.98549271,32.42053604,30939.9,0,0,0,-3.39921,-1687.17,-2.58133,0,0,0,30939.96484,88.55742023,84.554039,108.9058541,0,0,0,0,0,0,0,0,0,0,30939.9,0,0,0,0,0,0,0,860085.6585,0,0,0,0,0,0,0,0,0,0,0,0,0,0,0,0,0,0,0,0,0,0,0,0,0,569,543,552,565,480,470,477,10387.97781
0.368,11,1728.814941,0,0,0,0,0,0,0,0,0,0,0,0,0,1.13E+06,715662,-1.16E+06,-933.916,-597.177,-1271.9,0.37676746,-0.6003319,-0.38972479,0.58801574,0,0,-5.55E-06,-40.9859314,32.42053223,30939.9,0,0,0,-3.39919,-1687.17,-2.581,0,0,0,30939.94336,88.55742263,84.55448151,108.9062908,0,0,0,0,0,0,0,0,0,0,30939.9,0,0,0,0,0,0,0,860072.3972,0,0,0,0,0,0,0,0,0,0,0,0,0,0,0,0,0,0,0,0,0,0,0,0,0,569,543,552,565,480,470,477,10387.75243
0.376,11,1728.814941,0,0,0,0,0,0,0,0,0,0,0,0,0,1.13E+06,715657,-1.16E+06,-933.924,-597.182,-1271.89,0.37676746,-0.6003319,-0.38972479,0.58801574,0,0,-5.58E-06,-40.98636627,32.42053223,30939.9,0,0,0,-3.39916,-1687.17,-2.58066,0,0,0,30939.92383,88.5574249,84.55491638,108.9067276,0,0,0,0,0,0,0,0,0,0,30939.9,0,0,0,0,0,0,0,860059.1354,0,0,0,0,0,0,0,0,0,0,0,0,0,0,0,0,0,0,0,0,0,0,0,0,0,569,543,552,565,480,470,477,10387.52706
0.384,11,1728.814941,0,0,0,0,0,0,0,0,0,0,0,0,0,1.13E+06,715652,-1.16E+06,-933.932,-597.187,-1271.88,0.37676746,-0.6003319,-0.38972479,0.58801574,0,0,-5.55E-06,-40.98680496,32.42053223,30939.9,0,0,0,-3.39914,-1687.17,-2.58033,0,0,0,30939.90234,88.55742708,84.55535126,108.9071657,0,0,0,0,0,0,0,0,0,0,30939.9,0,0,0,0,0,0,0,860045.8741,0,0,0,0,0,0,0,0,0,0,0,0,0,0,0,0,0,0,0,0,0,0,0,0,0,569,543,552,565,480,470,477,10387.30168
0.392,11,1728.814941,0,0,0,0,0,0,0,0,0,0,0,0,0,1.13E+06,715648,-1.16E+06,-933.94,-597.192,-1271.88,0.37676746,-0.6003319,-0.38972479,0.58801574,0,0,-5.55E-06,-40.98724365,32.42052841,30939.9,0,0,0,-3.39912,-1687.17,-2.58,0,0,0,30939.88281,88.55742935,84.55578613,108.9076024,0,0,0,0,0,0,0,0,0,0,30939.9,0,0,0,0,0,0,0,860032.6131,0,0,0,0,0,0,0,0,0,0,0,0,0,0,0,0,0,0,0,0,0,0,0,0,0,569,543,552,565,480,470,477,10387.06674
0.4,11,1728.814941,0,0,0,0,0,0,0,0,0,0,0,0,0,1.13E+06,715643,-1.16E+06,-933.948,-597.197,-1271.87,0.37676746,-0.6003319,-0.38972479,0.58801574,0,0,-5.55E-06,-40.98767853,32.42052841,30939.8,0,0,0,-3.39909,-1687.17,-2.57967,0,0,0,30939.86133,88.55743162,84.55622864,108.9080392,0,0,0,0,0,0,0,0,0,0,30939.8,0,0,0,0,0,0,0,860019.3518,0,0,0,0,0,0,0,0,0,0,0,0,0,0,0,0,0,0,0,0,0,0,0,0,0,569,543,552,565,480,470,477,10386.83987
0.408,11,1728.814941,0,0,0,0,0,0,0,0,0,0,0,0,0,1.13E+06,715638,-1.16E+06,-933.956,-597.203,-1271.86,0.37676746,-0.6003319,-0.38972479,0.58801574,0,0,-5.58E-06,-40.98811722,32.42052841,30939.8,0,0,0,-3.39907,-1687.17,-2.57934,0,0,0,30939.83984,88.55743404,84.55666351,108.9084779,0,0,0,0,0,0,0,0,0,0,30939.8,0,0,0,0,0,0,0,860006.0907,0,0,0,0,0,0,0,0,0,0,0,0,0,0,0,0,0,0,0,0,0,0,0,0,0,569,543,552,565,480,470,477,10386.61451
0.416,11,1728.814941,0,0,0,0,0,0,0,0,0,0,0,0,0,1.13E+06,715633,-1.16E+06,-933.964,-597.208,-1271.85,0.37676746,-0.6003319,-0.38972479,0.58801574,0,0,-5.55E-06,-40.98855591,32.4205246,30939.8,0,0,0,-3.39905,-1687.17,-2.57901,0,0,0,30939.82031,88.55743618,84.55709839,108.9089146,0,0,0,0,0,0,0,0,0,0,30939.8,0,0,0,0,0,0,0,859992.8302,0,0,0,0,0,0,0,0,0,0,0,0,0,0,0,0,0,0,0,0,0,0,0,0,0,569,543,552,565,480,470,477,10386.38916
0.424,11,1728.814941,0,0,0,0,0,0,0,0,0,0,0,0,0,1.13E+06,715628,-1.16E+06,-933.972,-597.213,-1271.84,0.37676746,-0.6003319,-0.38972479,0.58801574,0,0,-5.55E-06,-40.98899078,32.4205246,30939.8,0,0,0,-3.39903,-1687.17,-2.57867,0,0,0,30939.79883,88.55743858,84.55754089,108.9093514,0,0,0,0,0,0,0,0,0,0,30939.8,0,0,0,0,0,0,0,859979.5686,0,0,0,0,0,0,0,0,0,0,0,0,0,0,0,0,0,0,0,0,0,0,0,0,0,569,543,552,565,480,470,477,10386.16377
0.432,11,1728.814941,0,0,0,0,0,0,0,0,0,0,0,0,0,1.13E+06,715624,-1.16E+06,-933.98,-597.218,-1271.83,0.37676746,-0.6003319,-0.38972479,0.58801574,0,0,-5.55E-06,-40.98942947,32.4205246,30939.8,0,0,0,-3.399,-1687.17,-2.57834,0,0,0,30939.7793,88.55744078,84.55797577,108.9097914,0,0,0,0,0,0,0,0,0,0,30939.8,0,0,0,0,0,0,0,859966.3075,0,0,0,0,0,0,0,0,0,0,0,0,0,0,0,0,0,0,0,0,0,0,0,0,0,569,543,552,565,480,470,477,10385.92876
0.44,11,1728.814941,0,0,0,0,0,0,0,0,0,0,0,0,0,1.13E+06,715619,-1.16E+06,-933.988,-597.223,-1271.83,0.37676746,-0.6003319,-0.38972479,0.58801574,0,0,-5.55E-06,-40.98986816,32.42052078,30939.7,0,0,0,-3.39898,-1687.17,-2.57801,0,0,0,30939.75781,88.55744305,84.55841064,108.9102281,0,0,0,0,0,0,0,0,0,0,30939.7,0,0,0,0,0,0,0,859953.0458,0,0,0,0,0,0,0,0,0,0,0,0,0,0,0,0,0,0,0,0,0,0,0,0,0,569,543,552,565,480,470,477,10385.70195
0.448,11,1728.814941,0,0,0,0,0,0,0,0,0,0,0,0,0,1.13E+06,715614,-1.16E+06,-933.996,-597.228,-1271.82,0.37676746,-0.6003319,-0.38972479,0.58801574,0,0,-5.58E-06,-40.99030304,32.42052078,30939.7,0,0,0,-3.39896,-1687.17,-2.57768,0,0,0,30939.73828,88.55744532,84.55885315,108.9106649,0,0,0,0,0,0,0,0,0,0,30939.7,0,0,0,0,0,0,0,859939.7853,0,0,0,0,0,0,0,0,0,0,0,0,0,0,0,0,0,0,0,0,0,0,0,0,0,569,543,552,565,480,470,477,10385.4766
0.456,11,1728.814941,0,0,0,0,0,0,0,0,0,0,0,0,0,1.13E+06,715609,-1.16E+06,-934.004,-597.233,-1271.81,0.37676746,-0.6003319,-0.38972479,0.58801574,0,0,-5.55E-06,-40.99074173,32.42052078,30939.7,0,0,0,-3.39893,-1687.17,-2.57735,0,0,0,30939.7168,88.55744759,84.55928802,108.9111016,0,0,0,0,0,0,0,0,0,0,30939.7,0,0,0,0,0,0,0,859926.5237,0,0,0,0,0,0,0,0,0,0,0,0,0,0,0,0,0,0,0,0,0,0,0,0,0,569,543,552,565,480,470,477,10385.25122
0.464,11,1728.814941,0,0,0,0,0,0,0,0,0,0,0,0,0,1.13E+06,715605,-1.16E+06,-934.012,-597.238,-1271.8,0.37676746,-0.6003319,-0.38972479,0.58801574,0,0,-5.55E-06,-40.99117661,32.42052078,30939.7,0,0,0,-3.39891,-1687.17,-2.57702,0,0,0,30939.69531,88.55744987,84.5597229,108.9115384,0,0,0,0,0,0,0,0,0,0,30939.7,0,0,0,0,0,0,0,859913.2628,0,0,0,0,0,0,0,0,0,0,0,0,0,0,0,0,0,0,0,0,0,0,0,0,0,569,543,552,565,480,470,477,10385.0162
0.472,11,1728.814941,0,0,0,0,0,0,0,0,0,0,0,0,0,1.13E+06,715600,-1.16E+06,-934.02,-597.243,-1271.79,0.37676746,-0.6003319,-0.38972479,0.58801574,0,0,-5.55E-06,-40.9916153,32.42051697,30939.7,0,0,0,-3.39889,-1687.17,-2.57669,0,0,0,30939.67578,88.55745214,84.56016541,108.9119752,0,0,0,0,0,0,0,0,0,0,30939.7,0,0,0,0,0,0,0,859900.0019,0,0,0,0,0,0,0,0,0,0,0,0,0,0,0,0,0,0,0,0,0,0,0,0,0,569,543,552,565,480,470,477,10384.79084
0.48,11,1728.814941,0,0,0,0,0,0,0,0,0,0,0,0,0,1.13E+06,715595,-1.16E+06,-934.028,-597.248,-1271.79,0.37676746,-0.6003319,-0.38972479,0.58801574,0,0,-5.58E-06,-40.99205399,32.42051697,30939.6,0,0,0,-3.39887,-1687.17,-2.57635,0,0,0,30939.6543,88.55745442,84.56060028,108.9124119,0,0,0,0,0,0,0,0,0,0,30939.6,0,0,0,0,0,0,0,859886.7398,0,0,0,0,0,0,0,0,0,0,0,0,0,0,0,0,0,0,0,0,0,0,0,0,0,569,543,552,565,480,470,477,10384.56403
0.488,11,1728.814941,0,0,0,0,0,0,0,0,0,0,0,0,0,1.13E+06,715590,-1.16E+06,-934.036,-597.253,-1271.78,0.37676746,-0.6003319,-0.38972479,0.58801574,0,0,-5.55E-06,-40.99248886,32.42051697,30939.6,0,0,0,-3.39884,-1687.17,-2.57602,0,0,0,30939.63477,88.55745672,84.56103516,108.91285,0,0,0,0,0,0,0,0,0,0,30939.6,0,0,0,0,0,0,0,859873.4789,0,0,0,0,0,0,0,0,0,0,0,0,0,0,0,0,0,0,0,0,0,0,0,0,0,569,543,552,565,480,470,477,10384.33867
0.496,11,1728.814941,0,0,0,0,0,0,0,0,0,0,0,0,0,1.13E+06,715585,-1.16E+06,-934.044,-597.258,-1271.77,0.37676746,-0.6003319,-0.38972479,0.58801574,0,0,-5.55E-06,-40.99292755,32.42051315,30939.6,0,0,0,-3.39882,-1687.17,-2.57569,0,0,0,30939.61328,88.55745901,84.56147766,108.9132887,0,0,0,0,0,0,0,0,0,0,30939.6,0,0,0,0,0,0,0,859860.218,0,0,0,0,0,0,0,0,0,0,0,0,0,0,0,0,0,0,0,0,0,0,0,0,0,569,543,552,565,480,470,477,10384.1133
0.504,11,1728.814941,0,0,0,0,0,0,0,0,0,0,0,0,0,1.13E+06,715581,-1.16E+06,-934.052,-597.263,-1271.76,0.37676746,-0.6003319,-0.38972479,0.58801574,0,0,-5.55E-06,-40.99336624,32.42051315,30939.6,0,0,0,-3.3988,-1687.17,-2.57536,0,0,0,30939.59375,88.55746128,84.56191254,108.9137254,0,0,0,0,0,0,0,0,0,0,30939.6,0,0,0,0,0,0,0,859846.9566,0,0,0,0,0,0,0,0,0,0,0,0,0,0,0,0,0,0,0,0,0,0,0,0,0,569,543,552,565,480,470,477,10383.87828
0.512,11,1728.814941,0,0,0,0,0,0,0,0,0,0,0,0,0,1.13E+06,715576,-1.16E+06,-934.06,-597.268,-1271.75,0.37676746,-0.6003319,-0.38972479,0.58801574,0,0,-5.55E-06,-40.99380112,32.42051315,30939.6,0,0,0,-3.39877,-1687.17,-2.57503,0,0,0,30939.57227,88.55746357,84.56234741,108.9141641,0,0,0,0,0,0,0,0,0,0,30939.6,0,0,0,0,0,0,0,859833.6957,0,0,0,0,0,0,0,0,0,0,0,0,0,0,0,0,0,0,0,0,0,0,0,0,0,569,543,552,565,480,470,477,10383.65291
0.52,11,1728.814941,0,0,0,0,0,0,0,0,0,0,0,0,0,1.13E+06,715571,-1.16E+06,-934.068,-597.273,-1271.74,0.37676746,-0.6003319,-0.38972479,0.58801574,0,0,-5.58E-06,-40.99423981,32.42050934,30939.5,0,0,0,-3.39875,-1687.17,-2.5747,0,0,0,30939.55273,88.55746585,84.56278992,108.9146008,0,0,0,0,0,0,0,0,0,0,30939.5,0,0,0,0,0,0,0,859820.4343,0,0,0,0,0,0,0,0,0,0,0,0,0,0,0,0,0,0,0,0,0,0,0,0,0,569,543,552,565,480,470,477,10383.42605
0.528,11,1728.814941,0,0,0,0,0,0,0,0,0,0,0,0,0,1.13E+06,715566,-1.16E+06,-934.076,-597.278,-1271.73,0.37676746,-0.6003319,-0.38972479,0.58801574,0,0,-5.55E-06,-40.9946785,32.42050934,30939.5,0,0,0,-3.39873,-1687.17,-2.57436,0,0,0,30939.53125,88.55746812,84.56322479,108.9150376,0,0,0,0,0,0,0,0,0,0,30939.5,0,0,0,0,0,0,0,859807.173,0,0,0,0,0,0,0,0,0,0,0,0,0,0,0,0,0,0,0,0,0,0,0,0,0,569,543,552,565,480,470,477,10383.20067
0.536,11,1728.814941,0,0,0,0,0,0,0,0,0,0,0,0,0,1.13E+06,715562,-1.16E+06,-934.084,-597.283,-1271.73,0.37676746,-0.6003319,-0.38972479,0.58801574,0,0,-5.55E-06,-40.99511337,32.42050934,30939.5,0,0,0,-3.39871,-1687.17,-2.57403,0,0,0,30939.51172,88.5574703,84.56365967,108.9154757,0,0,0,0,0,0,0,0,0,0,30939.5,0,0,0,0,0,0,0,859793.9116,0,0,0,0,0,0,0,0,0,0,0,0,0,0,0,0,0,0,0,0,0,0,0,0,0,569,543,552,565,480,470,477,10382.96573
0.544,11,1728.814941,0,0,0,0,0,0,0,0,0,0,0,0,0,1.13E+06,715557,-1.16E+06,-934.092,-597.288,-1271.72,0.37676746,-0.6003319,-0.38972479,0.58801574,0,0,-5.55E-06,-40.99555206,32.42050552,30939.5,0,0,0,-3.39868,-1687.17,-2.5737,0,0,0,30939.49023,88.55747257,84.56410217,108.9159124,0,0,0,0,0,0,0,0,0,0,30939.5,0,0,0,0,0,0,0,859780.6502,0,0,0,0,0,0,0,0,0,0,0,0,0,0,0,0,0,0,0,0,0,0,0,0,0,569,543,552,565,480,470,477,10382.74034
0.552,11,1728.814941,0,0,0,0,0,0,0,0,0,0,0,0,0,1.13E+06,715552,-1.16E+06,-934.1,-597.293,-1271.71,0.37676746,-0.6003319,-0.38972479,0.58801574,0,0,-5.58E-06,-40.99599075,32.42050552,30939.4,0,0,0,-3.39866,-1687.17,-2.57337,0,0,0,30939.46875,88.55747485,84.56453705,108.9163492,0,0,0,0,0,0,0,0,0,0,30939.4,0,0,0,0,0,0,0,859767.3893,0,0,0,0,0,0,0,0,0,0,0,0,0,0,0,0,0,0,0,0,0,0,0,0,0,569,543,552,565,480,470,477,10382.51348
0.56,11,1728.814941,0,0,0,0,0,0,0,0,0,0,0,0,0,1.13E+06,715547,-1.16E+06,-934.108,-597.298,-1271.7,0.37676746,-0.6003319,-0.38972479,0.58801574,0,0,-5.55E-06,-40.99642563,32.42050552,30939.4,0,0,0,-3.39864,-1687.17,-2.57304,0,0,0,30939.44922,88.55747725,84.56497192,108.916786,0,0,0,0,0,0,0,0,0,0,30939.4,0,0,0,0,0,0,0,859754.1283,0,0,0,0,0,0,0,0,0,0,0,0,0,0,0,0,0,0,0,0,0,0,0,0,0,569,543,552,565,480,470,477,496
0.568,11,1728.814941,0,0,0,0,0,0,0,0,0,0,0,0,0,1.13E+06,715542,-1.16E+06,-934.116,-597.303,-1271.69,0.37676746,-0.6003319,-0.38972479,0.58801574,0,0,-5.55E-06,-40.99686432,32.42050552,30939.4,0,0,0,-3.39861,-1687.17,-2.57271,0,0,0,30939.42773,88.55747952,84.56541443,108.9172227,0,0,0,0,0,0,0,0,0,0,30939.4,0,0,0,0,0,0,0,859740.8668,0,0,0,0,0,0,0,0,0,0,0,0,0,0,0,0,0,0,0,0,0,0,0,0,0,569,543,552,565,480,470,477,496
0.576,11,1728.814941,0,0,0,0,0,0,0,0,0,0,0,0,0,1.13E+06,715538,-1.16E+06,-934.124,-597.308,-1271.69,0.37676746,-0.6003319,-0.38972479,0.58801574,0,0,-5.55E-06,-40.99729919,32.42050171,30939.4,0,0,0,-3.39859,-1687.17,-2.57237,0,0,0,30939.4082,88.5574818,84.5658493,108.9176595,0,0,0,0,0,0,0,0,0,0,30939.4,0,0,0,0,0,0,0,859727.6058,0,0,0,0,0,0,0,0,0,0,0,0,0,0,0,0,0,0,0,0,0,0,0,0,0,569,543,552,565,480,470,477,496
0.584,11,1728.814941,0,0,0,0,0,0,0,0,0,0,0,0,0,1.13E+06,715533,-1.16E+06,-934.132,-597.313,-1271.68,0.37676746,-0.6003319,-0.38972479,0.58801574,0,0,-5.55E-06,-40.99773788,32.42050171,30939.4,0,0,0,-3.39857,-1687.17,-2.57204,0,0,0,30939.38672,88.55748399,84.56628418,108.9180995,0,0,0,0,0,0,0,0,0,0,30939.4,0,0,0,0,0,0,0,859714.3444,0,0,0,0,0,0,0,0,0,0,0,0,0,0,0,0,0,0,0,0,0,0,0,0,0,569,543,552,565,480,470,477,496
0.592,11,1728.814941,0,0,0,0,0,0,0,0,0,0,0,0,0,1.13E+06,715528,-1.16E+06,-934.14,-597.318,-1271.67,0.37676746,-0.6003319,-0.38972479,0.58801574,0,0,-5.58E-06,-40.99817657,32.42050171,30939.3,0,0,0,-3.39854,-1687.17,-2.57171,0,0,0,30939.36719,88.55748628,84.56672668,108.9185381,0,0,0,0,0,0,0,0,0,0,30939.3,0,0,0,0,0,0,0,859701.0833,0,0,0,0,0,0,0,0,0,0,0,0,0,0,0,0,0,0,0,0,0,0,0,0,0,569,543,552,565,480,470,477,496
0.6,11,1728.814941,0,0,0,0,0,0,0,0,0,0,0,0,0,1.13E+06,715523,-1.16E+06,-934.148,-597.323,-1271.66,0.37676746,-0.6003319,-0.38972479,0.58801574,-2.61E-08,0,-5.55E-06,-40.99861145,32.42049789,30939.3,0,0,0,-3.39852,-1687.17,-2.57138,0,0,0,30939.3457,88.55748856,84.56716156,108.9189749,0,0,0,0,0,0,0,0,0,0,30939.3,0,0,0,0,0,0,0,859687.8219,0,0,0,0,0,0,0,0,0,0,0,0,0,0,0,0,0,0,0,0,0,0,0,0,0,569,543,552,565,480,470,477,496
0.608,11,1728.814941,0,0,0,0,0,0,0,0,0,0,0,0,0,1.13E+06,715519,-1.16E+06,-934.156,-597.328,-1271.65,0.37676746,-0.6003319,-0.38972479,0.58801574,0,0,-5.55E-06,-40.99905014,32.42049789,30939.3,0,0,0,-3.3985,-1687.17,-2.57105,0,0,0,30939.32617,88.55749083,84.56759644,108.9194117,0,0,0,0,0,0,0,0,0,0,30939.3,0,0,0,0,0,0,0,859674.5603,0,0,0,0,0,0,0,0,0,0,0,0,0,0,0,0,0,0,0,0,0,0,0,0,0,569,543,552,565,480,470,477,496
0.616,11,1728.814941,0,0,0,0,0,0,0,0,0,0,0,0,0,1.13E+06,715514,-1.16E+06,-934.165,-597.334,-1271.64,0.37676746,-0.6003319,-0.38972479,0.58801574,0,0,-5.55E-06,-40.99948883,32.42049789,30939.3,0,0,0,-3.39848,-1687.17,-2.57072,0,0,0,30939.30469,88.55749323,84.56803131,108.9198484,0,0,0,0,0,0,0,0,0,0,30939.3,0,0,0,0,0,0,0,859661.2993,0,0,0,0,0,0,0,0,0,0,0,0,0,0,0,0,0,0,0,0,0,0,0,0,0,569,543,552,565,480,470,477,496
0.624,11,1728.814941,0,0,0,0,0,0,0,0,0,0,0,0,0,1.13E+06,715509,-1.16E+06,-934.173,-597.339,-1271.64,0.37676746,-0.6003319,-0.38972479,0.58801574,0,0,-5.58E-06,-40.99992371,32.42049408,30939.3,0,0,0,-3.39845,-1687.17,-2.57038,0,0,0,30939.28516,88.55749538,84.56847382,108.9202852,0,0,0,0,0,0,0,0,0,0,30939.3,0,0,0,0,0,0,0,859648.0386,0,0,0,0,0,0,0,0,0,0,0,0,0,0,0,0,0,0,0,0,0,0,0,0,0,569,543,552,565,480,470,477,496
0.632,11,1728.814941,0,0,0,0,0,0,0,0,0,0,0,0,0,1.13E+06,715504,-1.16E+06,-934.181,-597.344,-1271.63,0.37676746,-0.6003319,-0.38972479,0.58801574,0,0,-5.55E-06,-41.0003624,32.42049408,30939.2,0,0,0,-3.39843,-1687.17,-2.57005,0,0,0,30939.26367,88.55749778,84.56890869,108.9207219,0,0,0,0,0,0,0,0,0,0,30939.2,0,0,0,0,0,0,0,859634.777,0,0,0,0,0,0,0,0,0,0,0,0,0,0,0,0,0,0,0,0,0,0,0,0,0,569,543,552,565,480,470,477,496
0.64,11,1728.814941,0,0,0,0,0,0,0,0,0,0,0,0,0,1.13E+06,715499,-1.16E+06,-934.189,-597.349,-1271.62,0.37676746,-0.6003319,-0.38972479,0.58801574,0,0,-5.55E-06,-41.00080109,32.42049408,30939.2,0,0,0,-3.39841,-1687.17,-2.56972,0,0,0,30939.24414,88.55749996,84.56934357,108.92116,0,0,0,0,0,0,0,0,0,0,30939.2,0,0,0,0,0,0,0,859621.516,0,0,0,0,0,0,0,0,0,0,0,0,0,0,0,0,0,0,0,0,0,0,0,0,0,569,543,552,565,480,470,477,496
0.648,11,1728.814941,0,0,0,0,0,0,0,0,0,0,0,0,0,1.13E+06,715495,-1.16E+06,-934.197,-597.354,-1271.61,0.37676746,-0.6003319,-0.38972479,0.58801574,0,0,-5.55E-06,-41.00123596,32.42049026,30939.2,0,0,0,-3.39838,-1687.17,-2.56939,0,0,0,30939.22266,88.55750224,84.56978607,108.9215968,0,0,0,0,0,0,0,0,0,0,30939.2,0,0,0,0,0,0,0,859608.2544,0,0,0,0,0,0,0,0,0,0,0,0,0,0,0,0,0,0,0,0,0,0,0,0,0,569,543,552,565,480,470,477,496
0.656,11,1728.814941,0,0,0,0,0,0,0,0,0,0,0,0,0,1.13E+06,715490,-1.16E+06,-934.205,-597.359,-1271.6,0.37676746,-0.6003319,-0.38972479,0.58801574,0,0,-5.55E-06,-41.00167465,32.42049026,30939.2,0,0,0,-3.39836,-1687.17,-2.56906,0,0,0,30939.20117,88.55750451,84.57022095,108.9220335,0,0,0,0,0,0,0,0,0,0,30939.2,0,0,0,0,0,0,0,859594.9937,0,0,0,0,0,0,0,0,0,0,0,0,0,0,0,0,0,0,0,0,0,0,0,0,0,569,543,552,565,480,470,477,496
0.664,11,1728.814941,0,0,0,0,0,0,0,0,0,0,0,0,0,1.13E+06,715485,-1.16E+06,-934.213,-597.364,-1271.6,0.37676746,-0.6003319,-0.38972479,0.58801574,0,0,-5.58E-06,-41.00210953,32.42049026,30939.2,0,0,0,-3.39834,-1687.17,-2.56873,0,0,0,30939.18164,88.55750679,84.57065582,108.9224703,0,0,0,0,0,0,0,0,0,0,30939.2,0,0,0,0,0,0,0,859581.7321,0,0,0,0,0,0,0,0,0,0,0,0,0,0,0,0,0,0,0,0,0,0,0,0,0,569,543,552,565,480,470,477,496
0.672,11,1728.814941,0,0,0,0,0,0,0,0,0,0,0,0,0,1.13E+06,715480,-1.16E+06,-934.221,-597.369,-1271.59,0.37676746,-0.6003319,-0.38972479,0.58801574,0,0,-5.55E-06,-41.00254822,32.42049026,30939.1,0,0,0,-3.39832,-1687.17,-2.5684,0,0,0,30939.16016,88.55750921,84.57109833,108.922909,0,0,0,0,0,0,0,0,0,0,30939.1,0,0,0,0,0,0,0,859568.4705,0,0,0,0,0,0,0,0,0,0,0,0,0,0,0,0,0,0,0,0,0,0,0,0,0,569,543,552,565,480,470,477,496
0.68,11,1728.814941,0,0,0,0,0,0,0,0,0,0,0,0,0,1.13E+06,715476,-1.16E+06,-934.229,-597.374,-1271.58,0.37676746,-0.6003319,-0.38972479,0.58801574,0,0,-5.55E-06,-41.00298691,32.42048645,30939.1,0,0,0,-3.39829,-1687.17,-2.56806,0,0,0,30939.14063,88.55751136,84.5715332,108.9233457,0,0,0,0,0,0,0,0,0,0,30939.1,0,0,0,0,0,0,0,859555.2102,0,0,0,0,0,0,0,0,0,0,0,0,0,0,0,0,0,0,0,0,0,0,0,0,0,569,543,552,565,480,470,477,496
0.688,11,1728.814941,0,0,0,0,0,0,0,0,0,0,0,0,0,1.13E+06,715471,-1.16E+06,-934.237,-597.379,-1271.57,0.37676746,-0.6003319,-0.38972479,0.58801574,0,0,-5.55E-06,-41.00342178,32.42048645,30939.1,0,0,0,-3.39827,-1687.17,-2.56773,0,0,0,30939.11914,88.55751368,84.57196808,108.9237857,0,0,0,0,0,0,0,0,0,0,30939.1,0,0,0,0,0,0,0,859541.9487,0,0,0,0,0,0,0,0,0,0,0,0,0,0,0,0,0,0,0,0,0,0,0,0,0,569,543,552,565,480,470,477,496
0.696,11,1728.814941,0,0,0,0,0,0,0,0,0,0,0,0,0,1.13E+06,715466,-1.16E+06,-934.245,-597.384,-1271.56,0.37676746,-0.6003319,-0.38972479,0.58801574,0,0,-5.58E-06,-41.00386047,32.42048645,30939.1,0,0,0,-3.39825,-1687.17,-2.5674,0,0,0,30939.09961,88.55751583,84.57241058,108.9242225,0,0,0,0,0,0,0,0,0,0,30939.1,0,0,0,0,0,0,0,859528.6878,0,0,0,0,0,0,0,0,0,0,0,0,0,0,0,0,0,0,0,0,0,0,0,0,0,569,543,552,565,480,470,477,496
0.704,11,1728.814941,0,0,0,0,0,0,0,0,0,0,0,0,0,1.13E+06,715461,-1.16E+06,-934.253,-597.389,-1271.55,0.37676746,-0.6003319,-0.38972479,0.58801574,0,0,-5.55E-06,-41.00429916,32.42048264,30939.1,0,0,0,-3.39822,-1687.17,-2.56707,0,0,0,30939.07813,88.55751823,84.57284546,108.9246592,0,0,0,0,0,0,0,0,0,0,30939.1,0,0,0,0,0,0,0,859515.4262,0,0,0,0,0,0,0,0,0,0,0,0,0,0,0,0,0,0,0,0,0,0,0,0,0,569,543,552,565,480,470,477,496
0.712,11,1728.814941,0,0,0,0,0,0,0,0,0,0,0,0,0,1.13E+06,715456,-1.16E+06,-934.261,-597.394,-1271.55,0.37676746,-0.6003319,-0.38972479,0.58801574,0,0,-5.55E-06,-41.00473404,32.42048264,30939,0,0,0,-3.3982,-1687.17,-2.56674,0,0,0,30939.05859,88.55752051,84.57328033,108.925096,0,0,0,0,0,0,0,0,0,0,30939,0,0,0,0,0,0,0,859502.165,0,0,0,0,0,0,0,0,0,0,0,0,0,0,0,0,0,0,0,0,0,0,0,0,0,569,543,552,565,480,470,477,496
0.72,11,1728.814941,0,0,0,0,0,0,0,0,0,0,0,0,0,1.13E+06,715452,-1.16E+06,-934.269,-597.399,-1271.54,0.37676746,-0.6003319,-0.38972479,0.58801574,0,0,-5.55E-06,-41.00517273,32.42048264,30939,0,0,0,-3.39818,-1687.17,-2.56641,0,0,0,30939.03711,88.55752278,84.57372284,108.9255327,0,0,0,0,0,0,0,0,0,0,30939,0,0,0,0,0,0,0,859488.9035,0,0,0,0,0,0,0,0,0,0,0,0,0,0,0,0,0,0,0,0,0,0,0,0,0,569,543,552,565,480,470,477,496
0.728,11,1728.814941,0,0,0,0,0,0,0,0,0,0,0,0,0,1.13E+06,715447,-1.16E+06,-934.277,-597.404,-1271.53,0.37676746,-0.6003319,-0.38972479,0.58801574,0,0,-5.55E-06,-41.00561142,32.42047882,30939,0,0,0,-3.39815,-1687.17,-2.56607,0,0,0,30939.01758,88.55752506,84.57415771,108.9259695,0,0,0,0,0,0,0,0,0,0,30939,0,0,0,0,0,0,0,859475.6421,0,0,0,0,0,0,0,0,0,0,0,0,0,0,0,0,0,0,0,0,0,0,0,0,0,569,543,552,565,480,470,477,496
0.736,11,1728.814941,0,0,0,0,0,0,0,0,0,0,0,0,0,1.13E+06,715442,-1.16E+06,-934.285,-597.409,-1271.52,0.37676746,-0.6003319,-0.38972479,0.58801574,0,0,-5.58E-06,-41.0060463,32.42047882,30939,0,0,0,-3.39813,-1687.17,-2.56574,0,0,0,30938.99609,88.55752734,84.57459259,108.9264063,0,0,0,0,0,0,0,0,0,0,30939,0,0,0,0,0,0,0,859462.3812,0,0,0,0,0,0,0,0,0,0,0,0,0,0,0,0,0,0,0,0,0,0,0,0,0,569,543,552,565,480,470,477,496
0.744,11,1728.814941,0,0,0,0,0,0,0,0,0,0,0,0,0,1.13E+06,715437,-1.16E+06,-934.293,-597.414,-1271.51,0.37676746,-0.6003319,-0.38972479,0.58801574,0,0,-5.55E-06,-41.00648499,32.42047882,30939,0,0,0,-3.39811,-1687.17,-2.56541,0,0,0,30938.97656,88.55752964,84.5750351,108.9268443,0,0,0,0,0,0,0,0,0,0,30939,0,0,0,0,0,0,0,859449.1204,0,0,0,0,0,0,0,0,0,0,0,0,0,0,0,0,0,0,0,0,0,0,0,0,0,569,543,552,565,480,470,477,496
0.752,11,1728.814941,0,0,0,0,0,0,0,0,0,0,0,0,0,1.13E+06,715432,-1.16E+06,-934.301,-597.419,-1271.51,0.37676746,-0.6003319,-0.38972479,0.58801574,0,0,-5.55E-06,-41.00692368,32.42047882,30938.9,0,0,0,-3.39809,-1687.17,-2.56508,0,0,0,30938.95508,88.55753181,84.57546997,108.927283,0,0,0,0,0,0,0,0,0,0,30938.9,0,0,0,0,0,0,0,859435.8587,0,0,0,0,0,0,0,0,0,0,0,0,0,0,0,0,0,0,0,0,0,0,0,0,0,569,543,552,565,480,470,477,496
0.76,11,1728.814941,0,0,0,0,0,0,0,0,0,0,0,0,0,1.13E+06,715428,-1.16E+06,-934.309,-597.424,-1271.5,0.37676746,-0.6003319,-0.38972479,0.58801574,0,0,-5.55E-06,-41.00735855,32.42047501,30938.9,0,0,0,-3.39806,-1687.17,-2.56475,0,0,0,30938.93555,88.55753411,84.57590485,108.9277211,0,0,0,0,0,0,0,0,0,0,30938.9,0,0,0,0,0,0,0,859422.5978,0,0,0,0,0,0,0,0,0,0,0,0,0,0,0,0,0,0,0,0,0,0,0,0,0,569,543,552,565,480,470,477,496
0.768,11,1728.814941,0,0,0,0,0,0,0,0,0,0,0,0,0,1.13E+06,715423,-1.16E+06,-934.317,-597.429,-1271.49,0.37676746,-0.6003319,-0.38972479,0.58801574,0,0,-5.58E-06,-41.00779724,32.42047501,30938.9,0,0,0,-3.39804,-1687.17,-2.56442,0,0,0,30938.91406,88.55753639,84.57634735,108.9281578,0,0,0,0,0,0,0,0,0,0,30938.9,0,0,0,0,0,0,0,859409.3361,0,0,0,0,0,0,0,0,0,0,0,0,0,0,0,0,0,0,0,0,0,0,0,0,0,569,543,552,565,480,470,477,496
0.776,11,1728.814941,0,0,0,0,0,0,0,0,0,0,0,0,0,1.13E+06,715418,-1.16E+06,-934.325,-597.434,-1271.48,0.37676746,-0.6003319,-0.38972479,0.58801574,0,0,-5.55E-06,-41.00823212,32.42047501,30938.9,0,0,0,-3.39802,-1687.17,-2.56408,0,0,0,30938.89453,88.55753867,84.57678223,108.9285946,0,0,0,0,0,0,0,0,0,0,30938.9,0,0,0,0,0,0,0,859396.0752,0,0,0,0,0,0,0,0,0,0,0,0,0,0,0,0,0,0,0,0,0,0,0,0,0,569,543,552,565,480,470,477,496
0.784,11,1728.814941,0,0,0,0,0,0,0,0,0,0,0,0,0,1.13E+06,715413,-1.16E+06,-934.333,-597.439,-1271.47,0.37676746,-0.6003319,-0.38972479,0.58801574,0,0,-5.55E-06,-41.00867081,32.42047119,30938.9,0,0,0,-3.39799,-1687.17,-2.56375,0,0,0,30938.87305,88.55754094,84.5772171,108.9290313,0,0,0,0,0,0,0,0,0,0,30938.9,0,0,0,0,0,0,0,859382.8135,0,0,0,0,0,0,0,0,0,0,0,0,0,0,0,0,0,0,0,0,0,0,0,0,0,569,543,552,565,480,470,477,496
0.792,11,1728.814941,0,0,0,0,0,0,0,0,0,0,0,0,0,1.13E+06,715409,-1.16E+06,-934.341,-597.444,-1271.46,0.37676746,-0.6003319,-0.38972479,0.58801574,0,0,-5.55E-06,-41.0091095,32.42047119,30938.8,0,0,0,-3.39797,-1687.17,-2.56342,0,0,0,30938.85352,88.55754314,84.57765961,108.9294713,0,0,0,0,0,0,0,0,0,0,30938.8,0,0,0,0,0,0,0,859369.5527,0,0,0,0,0,0,0,0,0,0,0,0,0,0,0,0,0,0,0,0,0,0,0,0,0,569,543,552,565,480,470,477,496
0.8,11,1728.814941,0,0,0,0,0,0,0,0,0,0,0,0,0,1.13E+06,715404,-1.16E+06,-934.349,-597.449,-1271.45,0.37676746,-0.6003319,-0.38972479,0.58801574,0,0,-5.55E-06,-41.00954437,32.42047119,30938.8,0,0,0,-3.39795,-1687.17,-2.56309,0,0,0,30938.83203,88.55754554,84.57809448,108.9299081,0,0,0,0,0,0,0,0,0,0,30938.8,0,0,0,0,0,0,0,859356.2917,0,0,0,0,0,0,0,0,0,0,0,0,0,0,0,0,0,0,0,0,0,0,0,0,0,569,543,552,565,480,470,477,496
0.808,11,1728.814941,0,0,0,0,0,0,0,0,0,0,0,0,0,1.13E+06,715399,-1.16E+06,-934.357,-597.454,-1271.45,0.37676746,-0.6003319,-0.38972479,0.58801574,0,0,-5.58E-06,-41.00998306,32.42046738,30938.8,0,0,0,-3.39793,-1687.17,-2.56276,0,0,0,30938.8125,88.55754769,84.57852936,108.9303449,0,0,0,0,0,0,0,0,0,0,30938.8,0,0,0,0,0,0,0,859343.0303,0,0,0,0,0,0,0,0,0,0,0,0,0,0,0,0,0,0,0,0,0,0,0,0,0,569,543,552,565,480,470,477,496
0.816,11,1728.814941,0,0,0,0,0,0,0,0,0,0,0,0,0,1.13E+06,715394,-1.16E+06,-934.365,-597.459,-1271.44,0.37676746,-0.6003319,-0.38972479,0.58801574,0,0,-5.55E-06,-41.01042175,32.42046738,30938.8,0,0,0,-3.3979,-1687.17,-2.56243,0,0,0,30938.79102,88.5575501,84.57897186,108.9307816,0,0,0,0,0,0,0,0,0,0,30938.8,0,0,0,0,0,0,0,859329.7685,0,0,0,0,0,0,0,0,0,0,0,0,0,0,0,0,0,0,0,0,0,0,0,0,0,569,543,552,565,480,470,477,496
0.824,11,1728.814941,0,0,0,0,0,0,0,0,0,0,0,0,0,1.13E+06,715389,-1.16E+06,-934.373,-597.464,-1271.43,0.37676746,-0.6003319,-0.38972479,0.58801574,0,0,-5.55E-06,-41.01085663,32.42046738,30938.7,0,0,0,-3.39788,-1687.17,-2.56209,0,0,0,30938.77148,88.55755238,84.57940674,108.9312184,0,0,0,0,0,0,0,0,0,0,30938.7,0,0,0,0,0,0,0,859316.5075,0,0,0,0,0,0,0,0,0,0,0,0,0,0,0,0,0,0,0,0,0,0,0,0,0,569,543,552,565,480,470,477,496
0.832,11,1728.814941,0,0,0,0,0,0,0,0,0,0,0,0,0,1.13E+06,715385,-1.16E+06,-934.381,-597.469,-1271.42,0.37676746,-0.6003319,-0.38972479,0.58801574,0,0,-5.55E-06,-41.01129532,32.42046356,30938.7,0,0,0,-3.39786,-1687.17,-2.56176,0,0,0,30938.75,88.55755467,84.57984161,108.931657,0,0,0,0,0,0,0,0,0,0,30938.7,0,0,0,0,0,0,0,859303.2469,0,0,0,0,0,0,0,0,0,0,0,0,0,0,0,0,0,0,0,0,0,0,0,0,0,569,543,552,565,480,470,477,496
0.84,11,1728.814941,0,0,0,0,0,0,0,0,0,0,0,0,0,1.13E+06,715380,-1.16E+06,-934.389,-597.475,-1271.41,0.37676746,-0.6003319,-0.38972479,0.58801574,0,0,-5.58E-06,-41.01173401,32.42046356,30938.7,0,0,0,-3.39783,-1687.17,-2.56143,0,0,0,30938.73047,88.55755695,84.58027649,108.9320938,0,0,0,0,0,0,0,0,0,0,30938.7,0,0,0,0,0,0,0,859289.9852,0,0,0,0,0,0,0,0,0,0,0,0,0,0,0,0,0,0,0,0,0,0,0,0,0,569,543,552,565,480,470,477,496
0.848,11,1728.814941,0,0,0,0,0,0,0,0,0,0,0,0,0,1.13E+06,715375,-1.16E+06,-934.397,-597.48,-1271.41,0.37676746,-0.6003319,-0.38972479,0.58801574,0,0,-5.55E-06,-41.01216888,32.42046356,30938.7,0,0,0,-3.39781,-1687.17,-2.5611,0,0,0,30938.70898,88.55755913,84.58071899,108.9325319,0,0,0,0,0,0,0,0,0,0,30938.7,0,0,0,0,0,0,0,859276.7242,0,0,0,0,0,0,0,0,0,0,0,0,0,0,0,0,0,0,0,0,0,0,0,0,0,569,543,552,565,480,470,477,496
0.856,11,1728.814941,0,0,0,0,0,0,0,0,0,0,0,0,0,1.13E+06,715370,-1.16E+06,-934.405,-597.485,-1271.4,0.37676746,-0.6003319,-0.38972479,0.58801574,0,0,-5.55E-06,-41.01260757,32.42046356,30938.7,0,0,0,-3.39779,-1687.17,-2.56077,0,0,0,30938.68945,88.55756153,84.58115387,108.9329686,0,0,0,0,0,0,0,0,0,0,30938.7,0,0,0,0,0,0,0,859263.4632,0,0,0,0,0,0,0,0,0,0,0,0,0,0,0,0,0,0,0,0,0,0,0,0,0,569,543,552,565,480,470,477,496
0.864,11,1728.814941,0,0,0,0,0,0,0,0,0,0,0,0,0,1.13E+06,715366,-1.16E+06,-934.413,-597.49,-1271.39,0.37676746,-0.6003319,-0.38972479,0.58801574,0,0,-5.55E-06,-41.01304626,32.42045975,30938.6,0,0,0,-3.39776,-1687.17,-2.56044,0,0,0,30938.66797,88.55756368,84.58158875,108.9334054,0,0,0,0,0,0,0,0,0,0,30938.6,0,0,0,0,0,0,0,859250.2016,0,0,0,0,0,0,0,0,0,0,0,0,0,0,0,0,0,0,0,0,0,0,0,0,0,569,543,552,565,480,470,477,496
0.872,11,1728.814941,0,0,0,0,0,0,0,0,0,0,0,0,0,1.13E+06,715361,-1.16E+06,-934.421,-597.495,-1271.38,0.37676746,-0.6003319,-0.38972479,0.58801574,0,0,-5.55E-06,-41.01348114,32.42045975,30938.6,0,0,0,-3.39774,-1687.17,-2.56011,0,0,0,30938.64844,88.55756609,84.58203125,108.9338422,0,0,0,0,0,0,0,0,0,0,30938.6,0,0,0,0,0,0,0,859236.9399,0,0,0,0,0,0,0,0,0,0,0,0,0,0,0,0,0,0,0,0,0,0,0,0,0,569,543,552,565,480,470,477,496
0.88,11,1728.814941,0,0,0,0,0,0,0,0,0,0,0,0,0,1.13E+06,715356,-1.16E+06,-934.429,-597.5,-1271.37,0.37676746,-0.6003319,-0.38972479,0.58801574,0,0,-5.58E-06,-41.01391983,32.42045975,30938.6,0,0,0,-3.39772,-1687.17,-2.55977,0,0,0,30938.62695,88.55756836,84.58246613,108.9342789,0,0,0,0,0,0,0,0,0,0,30938.6,0,0,0,0,0,0,0,859223.6789,0,0,0,0,0,0,0,0,0,0,0,0,0,0,0,0,0,0,0,0,0,0,0,0,0,569,543,552,565,480,470,477,496
0.888,11,1728.814941,0,0,0,0,0,0,0,0,0,0,0,0,0,1.13E+06,715351,-1.16E+06,-934.437,-597.505,-1271.37,0.37676746,-0.6003319,-0.38972479,0.58801574,0,0,-5.55E-06,-41.01435471,32.42045593,30938.6,0,0,0,-3.3977,-1687.17,-2.55944,0,0,0,30938.60742,88.55757064,84.582901,108.9347157,0,0,0,0,0,0,0,0,0,0,30938.6,0,0,0,0,0,0,0,859210.4181,0,0,0,0,0,0,0,0,0,0,0,0,0,0,0,0,0,0,0,0,0,0,0,0,0,569,543,552,565,480,470,477,496
0.896,11,1728.814941,0,0,0,0,0,0,0,0,0,0,0,0,0,1.13E+06,715346,-1.16E+06,-934.445,-597.51,-1271.36,0.37676746,-0.6003319,-0.38972479,0.58801574,0,0,-5.55E-06,-41.0147934,32.42045593,30938.6,0,0,0,-3.39767,-1687.17,-2.55911,0,0,0,30938.58594,88.55757282,84.58334351,108.9351537,0,0,0,0,0,0,0,0,0,0,30938.6,0,0,0,0,0,0,0,859197.1571,0,0,0,0,0,0,0,0,0,0,0,0,0,0,0,0,0,0,0,0,0,0,0,0,0,569,543,552,565,480,470,477,496
0.904,11,1728.814941,0,0,0,0,0,0,0,0,0,0,0,0,0,1.13E+06,715342,-1.16E+06,-934.453,-597.515,-1271.35,0.37676746,-0.6003319,-0.38972479,0.58801574,0,0,-5.55E-06,-41.01523209,32.42045593,30938.5,0,0,0,-3.39765,-1687.17,-2.55878,0,0,0,30938.56641,88.5575751,84.58377838,108.9355905,0,0,0,0,0,0,0,0,0,0,30938.5,0,0,0,0,0,0,0,859183.8956,0,0,0,0,0,0,0,0,0,0,0,0,0,0,0,0,0,0,0,0,0,0,0,0,0,569,543,552,565,480,470,477,496
0.912,11,1728.814941,0,0,0,0,0,0,0,0,0,0,0,0,0,1.13E+06,715337,-1.16E+06,-934.461,-597.52,-1271.34,0.37676746,-0.6003319,-0.38972479,0.58801574,0,0,-5.58E-06,-41.01566696,32.42045212,30938.5,0,0,0,-3.39763,-1687.17,-2.55845,0,0,0,30938.54492,88.55757741,84.58421326,108.9360311,0,0,0,0,0,0,0,0,0,0,30938.5,0,0,0,0,0,0,0,859170.634,0,0,0,0,0,0,0,0,0,0,0,0,0,0,0,0,0,0,0,0,0,0,0,0,0,569,543,552,565,480,470,477,496
0.92,11,1728.814941,0,0,0,0,0,0,0,0,0,0,0,0,0,1.13E+06,715332,-1.16E+06,-934.469,-597.525,-1271.33,0.37676746,-0.6003319,-0.38972479,0.58801574,0,0,-5.55E-06,-41.01610565,32.42045212,30938.5,0,0,0,-3.3976,-1687.17,-2.55812,0,0,0,30938.52539,88.55757982,84.58465576,108.9364679,0,0,0,0,0,0,0,0,0,0,30938.5,0,0,0,0,0,0,0,859157.373,0,0,0,0,0,0,0,0,0,0,0,0,0,0,0,0,0,0,0,0,0,0,0,0,0,569,543,552,565,480,470,477,496
0.928,11,1728.814941,0,0,0,0,0,0,0,0,0,0,0,0,0,1.13E+06,715327,-1.16E+06,-934.477,-597.53,-1271.32,0.37676746,-0.6003319,-0.38972479,0.58801574,0,0,-5.55E-06,-41.01654434,32.42045212,30938.5,0,0,0,-3.39758,-1687.17,-2.55778,0,0,0,30938.50391,88.5575821,84.58509064,108.9369046,0,0,0,0,0,0,0,0,0,0,30938.5,0,0,0,0,0,0,0,859144.1122,0,0,0,0,0,0,0,0,0,0,0,0,0,0,0,0,0,0,0,0,0,0,0,0,0,569,543,552,565,480,470,477,496
0.936,11,1728.814941,0,0,0,0,0,0,0,0,0,0,0,0,0,1.13E+06,715323,-1.16E+06,-934.485,-597.535,-1271.32,0.37676746,-0.6003319,-0.38972479,0.58801574,0,0,-5.55E-06,-41.01697922,32.4204483,30938.5,0,0,0,-3.39756,-1687.17,-2.55745,0,0,0,30938.48438,88.55758437,84.58552551,108.9373414,0,0,0,0,0,0,0,0,0,0,30938.5,0,0,0,0,0,0,0,859130.8503,0,0,0,0,0,0,0,0,0,0,0,0,0,0,0,0,0,0,0,0,0,0,0,0,0,569,543,552,565,480,470,477,496
0.944,11,1728.814941,0,0,0,0,0,0,0,0,0,0,0,0,0,1.13E+06,715318,-1.16E+06,-934.493,-597.54,-1271.31,0.37676746,-0.6003319,-0.38972479,0.58801574,0,0,-5.55E-06,-41.01741791,32.4204483,30938.4,0,0,0,-3.39754,-1687.17,-2.55712,0,0,0,30938.46484,88.55758656,84.58596802,108.9377794,0,0,0,0,0,0,0,0,0,0,30938.4,0,0,0,0,0,0,0,859117.5895,0,0,0,0,0,0,0,0,0,0,0,0,0,0,0,0,0,0,0,0,0,0,0,0,0,569,543,552,565,480,470,477,496
0.952,11,1728.814941,0,0,0,0,0,0,0,0,0,0,0,0,0,1.13E+06,715313,-1.16E+06,-934.501,-597.545,-1271.3,0.37676746,-0.6003319,-0.38972479,0.58801574,-2.61E-08,0,-5.58E-06,-41.0178566,32.4204483,30938.4,0,0,0,-3.39751,-1687.17,-2.55679,0,0,0,30938.44336,88.55758883,84.58640289,108.9382162,0,0,0,0,0,0,0,0,0,0,30938.4,0,0,0,0,0,0,0,859104.328,0,0,0,0,0,0,0,0,0,0,0,0,0,0,0,0,0,0,0,0,0,0,0,0,0,569,543,552,565,480,470,477,496
0.96,11,1728.814941,0,0,0,0,0,0,0,0,0,0,0,0,0,1.13E+06,715308,-1.16E+06,-934.509,-597.55,-1271.29,0.37676746,-0.6003319,-0.38972479,0.58801574,0,0,-5.55E-06,-41.01829147,32.4204483,30938.4,0,0,0,-3.39749,-1687.17,-2.55646,0,0,0,30938.42383,88.55759111,84.58683777,108.938653,0,0,0,0,0,0,0,0,0,0,30938.4,0,0,0,0,0,0,0,859091.0668,0,0,0,0,0,0,0,0,0,0,0,0,0,0,0,0,0,0,0,0,0,0,0,0,0,569,543,552,565,480,470,477,496
0.968,11,1728.814941,0,0,0,0,0,0,0,0,0,0,0,0,0,1.13E+06,715303,-1.16E+06,-934.517,-597.555,-1271.28,0.37676746,-0.6003319,-0.38972479,0.58801574,0,0,-5.55E-06,-41.01873016,32.42044449,30938.4,0,0,0,-3.39747,-1687.17,-2.55613,0,0,0,30938.40234,88.55759339,84.58728027,108.9390897,0,0,0,0,0,0,0,0,0,0,30938.4,0,0,0,0,0,0,0,859077.806,0,0,0,0,0,0,0,0,0,0,0,0,0,0,0,0,0,0,0,0,0,0,0,0,0,569,543,552,565,480,470,477,496
0.976,11,1728.814941,0,0,0,0,0,0,0,0,0,0,0,0,0,1.13E+06,715299,-1.16E+06,-934.525,-597.56,-1271.27,0.37676746,-0.6003319,-0.38972479,0.58801574,0,0,-5.55E-06,-41.01916885,32.42044449,30938.4,0,0,0,-3.39744,-1687.17,-2.55579,0,0,0,30938.38281,88.5575958,84.58771515,108.9395265,0,0,0,0,0,0,0,0,0,0,30938.4,0,0,0,0,0,0,0,859064.5441,0,0,0,0,0,0,0,0,0,0,0,0,0,0,0,0,0,0,0,0,0,0,0,0,0,569,543,552,565,480,470,477,496
0.984,11,1728.814941,0,0,0,0,0,0,0,0,0,0,0,0,0,1.13E+06,715294,-1.16E+06,-934.533,-597.565,-1271.27,0.37676746,-0.6003319,-0.38972479,0.58801574,0,0,-5.58E-06,-41.01960373,32.42044449,30938.3,0,0,0,-3.39742,-1687.17,-2.55546,0,0,0,30938.36133,88.55759808,84.58815002,108.9399632,0,0,0,0,0,0,0,0,0,0,30938.3,0,0,0,0,0,0,0,859051.2833,0,0,0,0,0,0,0,0,0,0,0,0,0,0,0,0,0,0,0,0,0,0,0,0,0,569,543,552,565,480,470,477,496
0.992,11,1728.814941,0,0,0,0,0,0,0,0,0,0,0,0,0,1.13E+06,715289,-1.16E+06,-934.541,-597.57,-1271.26,0.37676746,-0.6003319,-0.38972479,0.58801574,0,0,-5.55E-06,-41.02004242,32.42044067,30938.3,0,0,0,-3.3974,-1687.17,-2.55513,0,0,0,30938.3418,88.55760037,84.58859253,108.9404019,0,0,0,0,0,0,0,0,0,0,30938.3,0,0,0,0,0,0,0,859038.0216,0,0,0,0,0,0,0,0,0,0,0,0,0,0,0,0,0,0,0,0,0,0,0,0,0,569,543,552,565,480,470,477,496
1,11,1728.814941,0,0,0,0,0,0,0,0,0,0,0,0,0,1.13E+06,715284,-1.16E+06,-934.549,-597.575,-1271.25,0.37676746,-0.6003319,-0.38972479,0.58801574,0,0,-5.55E-06,-41.02047729,32.42044067,30938.3,0,0,0,-3.39737,-1687.17,-2.5548,0,0,0,30938.32031,88.55760246,84.5890274,108.9408413,0,0,0,0,0,0,0,0,0,0,30938.3,0,0,0,0,0,0,0,859024.7608,0,0,0,0,0,0,0,0,0,0,0,0,0,0,0,0,0,0,0,0,0,0,0,0,0,569,543,552,565,480,470,477,496
1.008,11,1728.814941,0,0,0,0,0,0,0,0,0,0,0,0,0,1.13E+06,715280,-1.16E+06,-934.557,-597.58,-1271.24,0.37676746,-0.6003319,-0.38972479,0.58801574,0,0,-5.55E-06,-41.02091599,32.42044067,30938.3,0,0,0,-3.39735,-1687.17,-2.55447,0,0,0,30938.30078,88.55760474,84.58946228,108.9412781,0,0,0,0,0,0,0,0,0,0,30938.3,0,0,0,0,0,0,0,859011.4991,0,0,0,0,0,0,0,0,0,0,0,0,0,0,0,0,0,0,0,0,0,0,0,0,0,569,543,552,565,480,470,477,496
1.016,11,1728.814941,0,0,0,0,0,0,0,0,0,0,0,0,0,1.13E+06,715275,-1.16E+06,-934.565,-597.585,-1271.23,0.37676746,-0.6003319,-0.38972479,0.58801574,0,0,-5.58E-06,-41.02135468,32.42043686,30938.3,0,0,0,-3.39733,-1687.17,-2.55414,0,0,0,30938.2793,88.55760714,84.58990479,108.9417148,0,0,0,0,0,0,0,0,0,0,30938.3,0,0,0,0,0,0,0,858998.238,0,0,0,0,0,0,0,0,0,0,0,0,0,0,0,0,0,0,0,0,0,0,0,0,0,569,543,552,565,480,470,477,496
1.024,11,1728.814941,0,0,0,0,0,0,0,0,0,0,0,0,0,1.13E+06,715270,-1.16E+06,-934.573,-597.59,-1271.22,0.37676746,-0.6003319,-0.38972479,0.58801574,0,0,-5.55E-06,-41.02178955,32.42043686,30938.2,0,0,0,-3.39731,-1687.17,-2.55381,0,0,0,30938.25977,88.55760929,84.59033966,108.9421516,0,0,0,0,0,0,0,0,0,0,30938.2,0,0,0,0,0,0,0,858984.9766,0,0,0,0,0,0,0,0,0,0,0,0,0,0,0,0,0,0,0,0,0,0,0,0,0,569,543,552,565,480,470,477,496
1.032,11,1728.814941,0,0,0,0,0,0,0,0,0,0,0,0,0,1.13E+06,715265,-1.16E+06,-934.581,-597.595,-1271.22,0.37676746,-0.6003319,-0.38972479,0.58801574,0,0,-5.55E-06,-41.02222824,32.42043686,30938.2,0,0,0,-3.39728,-1687.17,-2.55347,0,0,0,30938.23828,88.5576117,84.59077454,108.9425883,0,0,0,0,0,0,0,0,0,0,30938.2,0,0,0,0,0,0,0,858971.7162,0,0,0,0,0,0,0,0,0,0,0,0,0,0,0,0,0,0,0,0,0,0,0,0,0,569,543,552,565,480,470,477,496
1.04,11,1728.814941,0,0,0,0,0,0,0,0,0,0,0,0,0,1.13E+06,715260,-1.16E+06,-934.589,-597.6,-1271.21,0.37676746,-0.6003319,-0.38972479,0.58801574,0,0,-5.55E-06,-41.02266693,32.42043686,30938.2,0,0,0,-3.39726,-1687.17,-2.55314,0,0,0,30938.21875,88.55761398,84.59120941,108.9430251,0,0,0,0,0,0,0,0,0,0,30938.2,0,0,0,0,0,0,0,858958.4545,0,0,0,0,0,0,0,0,0,0,0,0,0,0,0,0,0,0,0,0,0,0,0,0,0,569,543,552,565,480,470,477,496
1.048,11,1728.814941,0,0,0,0,0,0,0,0,0,0,0,0,0,1.13E+06,715256,-1.16E+06,-934.597,-597.605,-1271.2,0.37676746,-0.6003319,-0.38972479,0.58801574,0,0,-5.55E-06,-41.02310181,32.42043304,30938.2,0,0,0,-3.39724,-1687.17,-2.55281,0,0,0,30938.19727,88.55761618,84.59165192,108.9434651,0,0,0,0,0,0,0,0,0,0,30938.2,0,0,0,0,0,0,0,858945.1928,0,0,0,0,0,0,0,0,0,0,0,0,0,0,0,0,0,0,0,0,0,0,0,0,0,569,543,552,565,480,470,477,496
1.056,11,1728.814941,0,0,0,0,0,0,0,0,0,0,0,0,0,1.13E+06,715251,-1.16E+06,-934.605,-597.61,-1271.19,0.37676746,-0.6003319,-0.38972479,0.58801574,0,0,-5.58E-06,-41.0235405,32.42043304,30938.2,0,0,0,-3.39721,-1687.17,-2.55248,0,0,0,30938.17773,88.55761859,84.59208679,108.9439018,0,0,0,0,0,0,0,0,0,0,30938.2,0,0,0,0,0,0,0,858931.9328,0,0,0,0,0,0,0,0,0,0,0,0,0,0,0,0,0,0,0,0,0,0,0,0,0,569,543,552,565,480,470,477,496
1.064,11,1728.814941,0,0,0,0,0,0,0,0,0,0,0,0,0,1.13E+06,715246,-1.16E+06,-934.613,-597.616,-1271.18,0.37676746,-0.6003319,-0.38972479,0.58801574,0,0,-5.55E-06,-41.02397919,32.42043304,30938.1,0,0,0,-3.39719,-1687.17,-2.55215,0,0,0,30938.1582,88.55762074,84.59252167,108.9443386,0,0,0,0,0,0,0,0,0,0,30938.1,0,0,0,0,0,0,0,858918.6711,0,0,0,0,0,0,0,0,0,0,0,0,0,0,0,0,0,0,0,0,0,0,0,0,0,569,543,552,565,480,470,477,496
1.072,11,1728.814941,0,0,0,0,0,0,0,0,0,0,0,0,0,1.13E+06,715241,-1.16E+06,-934.621,-597.621,-1271.17,0.37676746,-0.6003319,-0.38972479,0.58801574,0,0,-5.55E-06,-41.02441406,32.42042923,30938.1,0,0,0,-3.39717,-1687.17,-2.55182,0,0,0,30938.13672,88.55762316,84.59296417,108.9447773,0,0,0,0,0,0,0,0,0,0,30938.1,0,0,0,0,0,0,0,858905.4101,0,0,0,0,0,0,0,0,0,0,0,0,0,0,0,0,0,0,0,0,0,0,0,0,0,569,543,552,565,480,470,477,496
1.08,11,1728.814941,0,0,0,0,0,0,0,0,0,0,0,0,0,1.13E+06,715237,-1.16E+06,-934.629,-597.626,-1271.17,0.37676746,-0.6003319,-0.38972479,0.58801574,0,0,-5.55E-06,-41.02485275,32.42042923,30938.1,0,0,0,-3.39715,-1687.17,-2.55148,0,0,0,30938.11719,88.55762531,84.59339905,108.945214,0,0,0,0,0,0,0,0,0,0,30938.1,0,0,0,0,0,0,0,858892.1484,0,0,0,0,0,0,0,0,0,0,0,0,0,0,0,0,0,0,0,0,0,0,0,0,0,569,543,552,565,480,470,477,496
1.088,11,1728.814941,0,0,0,0,0,0,0,0,0,0,0,0,0,1.13E+06,715232,-1.16E+06,-934.637,-597.631,-1271.16,0.37676746,-0.6003319,-0.38972479,0.58801574,0,0,-5.58E-06,-41.02529144,32.42042923,30938.1,0,0,0,-3.39712,-1687.17,-2.55115,0,0,0,30938.0957,88.55762772,84.59383392,108.9456508,0,0,0,0,0,0,0,0,0,0,30938.1,0,0,0,0,0,0,0,858878.8875,0,0,0,0,0,0,0,0,0,0,0,0,0,0,0,0,0,0,0,0,0,0,0,0,0,569,543,552,565,480,470,477,496
1.096,11,1728.814941,0,0,0,0,0,0,0,0,0,0,0,0,0,1.13E+06,715227,-1.16E+06,-934.645,-597.636,-1271.15,0.37676746,-0.6003319,-0.38972479,0.58801574,0,0,-5.55E-06,-41.02572632,32.42042542,30938.1,0,0,0,-3.3971,-1687.17,-2.55082,0,0,0,30938.07617,88.55763,84.59427643,108.9460876,0,0,0,0,0,0,0,0,0,0,30938.1,0,0,0,0,0,0,0,858865.6265,0,0,0,0,0,0,0,0,0,0,0,0,0,0,0,0,0,0,0,0,0,0,0,0,0,569,543,552,565,480,470,477,496
1.104,11,1728.814941,0,0,0,0,0,0,0,0,0,0,0,0,0,1.13E+06,715222,-1.16E+06,-934.653,-597.641,-1271.14,0.37676746,-0.6003319,-0.38972479,0.58801574,0,0,-5.55E-06,-41.02616501,32.42042542,30938,0,0,0,-3.39708,-1687.17,-2.55049,0,0,0,30938.05469,88.55763218,84.5947113,108.9465256,0,0,0,0,0,0,0,0,0,0,30938,0,0,0,0,0,0,0,858852.3647,0,0,0,0,0,0,0,0,0,0,0,0,0,0,0,0,0,0,0,0,0,0,0,0,0,569,543,552,565,480,470,477,496
1.112,11,1728.814941,0,0,0,0,0,0,0,0,0,0,0,0,0,1.13E+06,715217,-1.16E+06,-934.661,-597.646,-1271.13,0.37676746,-0.6003319,-0.38972479,0.58801574,0,0,-5.55E-06,-41.02659988,32.42042542,30938,0,0,0,-3.39705,-1687.17,-2.55016,0,0,0,30938.03516,88.55763459,84.59514618,108.9469624,0,0,0,0,0,0,0,0,0,0,30938,0,0,0,0,0,0,0,858839.1037,0,0,0,0,0,0,0,0,0,0,0,0,0,0,0,0,0,0,0,0,0,0,0,0,0,569,543,552,565,480,470,477,496
1.12,11,1728.814941,0,0,0,0,0,0,0,0,0,0,0,0,0,1.13E+06,715213,-1.16E+06,-934.669,-597.651,-1271.13,0.37676746,-0.6003319,-0.38972479,0.58801574,0,0,-5.55E-06,-41.02703857,32.4204216,30938,0,0,0,-3.39703,-1687.17,-2.54983,0,0,0,30938.01367,88.55763675,84.59558868,108.9473992,0,0,0,0,0,0,0,0,0,0,30938,0,0,0,0,0,0,0,858825.842,0,0,0,0,0,0,0,0,0,0,0,0,0,0,0,0,0,0,0,0,0,0,0,0,0,569,543,552,565,480,470,477,496
1.128,11,1728.814941,0,0,0,0,0,0,0,0,0,0,0,0,0,1.13E+06,715208,-1.16E+06,-934.677,-597.656,-1271.12,0.37676746,-0.6003319,-0.38972479,0.58801574,0,0,-5.58E-06,-41.02747726,32.4204216,30938,0,0,0,-3.39701,-1687.17,-2.54949,0,0,0,30937.99414,88.55763915,84.59602356,108.9478359,0,0,0,0,0,0,0,0,0,0,30938,0,0,0,0,0,0,0,858812.5812,0,0,0,0,0,0,0,0,0,0,0,0,0,0,0,0,0,0,0,0,0,0,0,0,0,569,543,552,565,480,470,477,496
1.136,11,1728.814941,0,0,0,0,0,0,0,0,0,0,0,0,0,1.13E+06,715203,-1.16E+06,-934.685,-597.661,-1271.11,0.37676746,-0.6003319,-0.38972479,0.58801574,0,0,-5.55E-06,-41.02791214,32.4204216,30938,0,0,0,-3.39698,-1687.17,-2.54916,0,0,0,30937.97266,88.55764143,84.59645844,108.9482727,0,0,0,0,0,0,0,0,0,0,30938,0,0,0,0,0,0,0,858799.3203,0,0,0,0,0,0,0,0,0,0,0,0,0,0,0,0,0,0,0,0,0,0,0,0,0,569,543,552,565,480,470,477,496
1.144,11,1728.814941,0,0,0,0,0,0,0,0,0,0,0,0,0,1.13E+06,715198,-1.16E+06,-934.693,-597.666,-1271.1,0.37676746,-0.6003319,-0.38972479,0.58801574,0,0,-5.55E-06,-41.02835083,32.4204216,30937.9,0,0,0,-3.39696,-1687.17,-2.54883,0,0,0,30937.95313,88.55764371,84.59690094,108.9487094,0,0,0,0,0,0,0,0,0,0,30937.9,0,0,0,0,0,0,0,858786.0584,0,0,0,0,0,0,0,0,0,0,0,0,0,0,0,0,0,0,0,0,0,0,0,0,0,569,543,552,565,480,470,477,496
